[
  {
    "school_id": "HQ Office MOE_004AD",
    "school_name_ar": "مجمع بينونة التعليمي",
    "school_name_en": "Baynunah Educational Complex",
    "latitude": 23.679486,
    "longitude": 53.691098,
    "engineer_name_ar": "فواز عبدالرحمن",
    "engineer_name_en": "Fawaz Abdelrhman",
    "engineer_email": "Fawaz.Abdelrhman@moe.gov.ae",
    "engineer_phone": "564323230",
    "google_maps_url": "https://maps.app.goo.gl/UYkRVLPdHGCDrUNa9"
  },
  {
    "school_id": "2025AD",
    "school_name_ar": "الحصن",
    "school_name_en": "Al Hosn",
    "latitude": 24.463602396,
    "longitude": 52.314669034,
    "engineer_name_ar": "عبدالخالق خان",
    "engineer_name_en": "abdulkhaliq khan",
    "engineer_email": "abdulkhaliq.khan@moe.gov.ae",
    "engineer_phone": "564263537",
    "google_maps_url": "https://maps.app.goo.gl/Vv2CUcSJvJZXeGPW9"
  },
  {
    "school_id": "1151AD",
    "school_name_ar": "مدرسة بدع المطاوعة",
    "school_name_en": "Bedaa Al Mutaw'a  School",
    "latitude": 23.78237907,
    "longitude": 52.575946928,
    "engineer_name_ar": "عبدالخالق خان",
    "engineer_name_en": "abdulkhaliq khan",
    "engineer_email": "abdulkhaliq.khan@moe.gov.ae",
    "engineer_phone": "564263537",
    "google_maps_url": "https://maps.app.goo.gl/WmeBNHyKEteEaXNi6"
  },
  {
    "school_id": "1662AD",
    "school_name_ar": "مدرسة الابتكار",
    "school_name_en": "Al Ebtikar School",
    "latitude": 23.83020972,
    "longitude": 52.81196192,
    "engineer_name_ar": "عبدالخالق خان",
    "engineer_name_en": "abdulkhaliq khan",
    "engineer_email": "abdulkhaliq.khan@moe.gov.ae",
    "engineer_phone": "564263537",
    "google_maps_url": "https://maps.app.goo.gl/jwYQa6y58hpEH5zZA"
  },
  {
    "school_id": "1682AD",
    "school_name_ar": "مدرسة بينونة",
    "school_name_en": "Baynouna School",
    "latitude": 23.854759927,
    "longitude": 52.805111153,
    "engineer_name_ar": "عبدالخالق خان",
    "engineer_name_en": "abdulkhaliq khan",
    "engineer_email": "abdulkhaliq.khan@moe.gov.ae",
    "engineer_phone": "564263537",
    "google_maps_url": "https://maps.app.goo.gl/c1FfRj6cUtCKEapx8"
  },
  {
    "school_id": "1563AD",
    "school_name_ar": "مدرسة خنور",
    "school_name_en": "Khanoor School",
    "latitude": 23.09523682,
    "longitude": 53.60717389,
    "engineer_name_ar": "فواز عبدالرحمن",
    "engineer_name_en": "Fawaz Abdelrhman",
    "engineer_email": "Fawaz.Abdelrhman@moe.gov.ae",
    "engineer_phone": "564323230",
    "google_maps_url": "https://maps.app.goo.gl/fmWzt9Zbf4mJbnCt8"
  },
  {
    "school_id": "438AD",
    "school_name_ar": "مدرسة الفاروق",
    "school_name_en": "Al Farouq School",
    "latitude": 23.11494774,
    "longitude": 53.60185391,
    "engineer_name_ar": "فواز عبدالرحمن",
    "engineer_name_en": "Fawaz Abdelrhman",
    "engineer_email": "Fawaz.Abdelrhman@moe.gov.ae",
    "engineer_phone": "564323230",
    "google_maps_url": "https://maps.app.goo.gl/YVQAmrpfjTgDv6D89"
  },
  {
    "school_id": "1643AD",
    "school_name_ar": "مدرسة الفلاح",
    "school_name_en": "Al Falah School",
    "latitude": 23.663572,
    "longitude": 53.694459,
    "engineer_name_ar": "فواز عبدالرحمن",
    "engineer_name_en": "Fawaz Abdelrhman",
    "engineer_email": "Fawaz.Abdelrhman@moe.gov.ae",
    "engineer_phone": "564323230",
    "google_maps_url": "https://maps.app.goo.gl/NjxfDL37SgNoCRZs7"
  },
  {
    "school_id": "505AD",
    "school_name_ar": "روضة الشذا",
    "school_name_en": "Al Shatha KG",
    "latitude": 23.635310486,
    "longitude": 53.703682375,
    "engineer_name_ar": "فواز عبدالرحمن",
    "engineer_name_en": "Fawaz Abdelrhman",
    "engineer_email": "Fawaz.Abdelrhman@moe.gov.ae",
    "engineer_phone": "564323230",
    "google_maps_url": "https://maps.app.goo.gl/NJv9ZKKA73tVbJdj6"
  },
  {
    "school_id": "282AD",
    "school_name_ar": "مدرسة قطر الندى",
    "school_name_en": "Qatr Al Nada School",
    "latitude": 23.648357432,
    "longitude": 53.710290784,
    "engineer_name_ar": "فواز عبدالرحمن",
    "engineer_name_en": "Fawaz Abdelrhman",
    "engineer_email": "Fawaz.Abdelrhman@moe.gov.ae",
    "engineer_phone": "564323230",
    "google_maps_url": "https://maps.app.goo.gl/LdhPs7StypzgfgeBA"
  },
  {
    "school_id": "2065AD",
    "school_name_ar": "مدرسة غياثي الجديدة",
    "school_name_en": "New Ghayathi school",
    "latitude": 23.89600795,
    "longitude": 52.803148533,
    "engineer_name_ar": "رحمة أبو سردانة",
    "engineer_name_en": "Rahmeh AbuSirdaneh",
    "engineer_email": "Rahmeh.AbuSirdaneh@moe.gov.ae",
    "engineer_phone": "544033840",
    "google_maps_url": "https://maps.app.goo.gl/wJE6YUM1z6oDQERG9"
  },
  {
    "school_id": "2071AD",
    "school_name_ar": "مدارس الظنة حلقة ثانية وثالثة بنات",
    "school_name_en": "Al Dhannah Schools-Cycle 2 & 3 Girls",
    "latitude": 24.07440816,
    "longitude": 52.65517771,
    "engineer_name_ar": "رحمة أبو سردانة",
    "engineer_name_en": "Rahmeh AbuSirdaneh",
    "engineer_email": "Rahmeh.AbuSirdaneh@moe.gov.ae",
    "engineer_phone": "544033840",
    "google_maps_url": "https://maps.app.goo.gl/Vp8bzDteTeWqM7vq6"
  },
  {
    "school_id": "2070AD",
    "school_name_ar": "مدارس الظنة روضة وحلقة أولى",
    "school_name_en": "Al Dhannah Schools- KG & Cycle1 Co-Ed",
    "latitude": 24.0929,
    "longitude": 52.6427,
    "engineer_name_ar": "رحمة أبو سردانة",
    "engineer_name_en": "Rahmeh AbuSirdaneh",
    "engineer_email": "Rahmeh.AbuSirdaneh@moe.gov.ae",
    "engineer_phone": "544033840",
    "google_maps_url": "https://maps.app.goo.gl/doaTkeHqRn53diJU9"
  },
  {
    "school_id": "2069AD",
    "school_name_ar": "مدارس الظنة حلقة ثانية وثالثة بنات",
    "school_name_en": "Al Dhannah Schools-Cycle 2 & 3 Girls",
    "latitude": 24.07440816,
    "longitude": 52.65517771,
    "engineer_name_ar": "روفان أليخو",
    "engineer_name_en": "Rovan Alejo",
    "engineer_email": "Rovan.Alejo@moe.gov.ae",
    "engineer_phone": "525082938",
    "google_maps_url": "https://maps.app.goo.gl/Vp8bzDteTeWqM7vq6"
  },
  {
    "school_id": "1564AD",
    "school_name_ar": "مدرسة الشبهانة",
    "school_name_en": "Al Shabhana School",
    "latitude": 24.063705316,
    "longitude": 51.763948554,
    "engineer_name_ar": "روفان أليخو",
    "engineer_name_en": "Rovan Alejo",
    "engineer_email": "Rovan.Alejo@moe.gov.ae",
    "engineer_phone": "525082938",
    "google_maps_url": "https://maps.app.goo.gl/HP2iw2dssoqQVJy67"
  },
  {
    "school_id": "1565AD",
    "school_name_ar": "مدرسة بعيا",
    "school_name_en": "Bayah School",
    "latitude": 24.078661791,
    "longitude": 51.762749532,
    "engineer_name_ar": "روفان أليخو",
    "engineer_name_en": "Rovan Alejo",
    "engineer_email": "Rovan.Alejo@moe.gov.ae",
    "engineer_phone": "525082938",
    "google_maps_url": "https://maps.app.goo.gl/vFGVjm2yLXSQ9Pb77"
  },
  {
    "school_id": "1153AD",
    "school_name_ar": "مدرسة السلع",
    "school_name_en": "Al Selaa School",
    "latitude": 24.079255721,
    "longitude": 51.758042884,
    "engineer_name_ar": "روفان أليخو",
    "engineer_name_en": "Rovan Alejo",
    "engineer_email": "Rovan.Alejo@moe.gov.ae",
    "engineer_phone": "525082938",
    "google_maps_url": "https://maps.app.goo.gl/W6FWiWDayhRgGfUB9"
  },
  {
    "school_id": "2066AD",
    "school_name_ar": "مدرسة زايد الجديدة",
    "school_name_en": "New Zayed school",
    "latitude": 23.64776447,
    "longitude": 53.70870721,
    "engineer_name_ar": "سريديف نير",
    "engineer_name_en": "sreedev nair",
    "engineer_email": "sreedev.nair@moe.gov.ae",
    "engineer_phone": "586018282",
    "google_maps_url": "https://maps.app.goo.gl/KCydeK5ifRfRgMfK8"
  },
  {
    "school_id": "2084AD",
    "school_name_ar": "مدارس المرفأ روضة وحلقة أولى",
    "school_name_en": "Al Marfaa Schools KG and C1",
    "latitude": 24.07783477,
    "longitude": 53.47770162,
    "engineer_name_ar": "سريديف نير",
    "engineer_name_en": "sreedev nair",
    "engineer_email": "sreedev.nair@moe.gov.ae",
    "engineer_phone": "586018282",
    "google_maps_url": "https://maps.app.goo.gl/3q5t56vaBXPkFUgt6"
  },
  {
    "school_id": "2086AD",
    "school_name_ar": "مدارس المرفأ حلقة ثانية وثالثة بنين",
    "school_name_en": "Al Marfaa Schools C2 & C3 Boys",
    "latitude": 24.07971498,
    "longitude": 53.47856691,
    "engineer_name_ar": "سريديف نير",
    "engineer_name_en": "sreedev nair",
    "engineer_email": "sreedev.nair@moe.gov.ae",
    "engineer_phone": "586018282",
    "google_maps_url": "https://maps.app.goo.gl/RM3we2wwcJpgNubU6"
  },
  {
    "school_id": "2085AD",
    "school_name_ar": "مدارس المرفأ حلقة ثانية وثالثة بنات",
    "school_name_en": "Al Marfaa Schools C2 & C3 Girls",
    "latitude": 24.09049527,
    "longitude": 53.47121706,
    "engineer_name_ar": "سريديف نير",
    "engineer_name_en": "sreedev nair",
    "engineer_email": "sreedev.nair@moe.gov.ae",
    "engineer_phone": "586018282",
    "google_maps_url": "https://maps.app.goo.gl/pmREuHtMggV9AVeG8"
  },
  {
    "school_id": "1562AD",
    "school_name_ar": "مدرسة الحطين",
    "school_name_en": "Al Huiteen School",
    "latitude": 23.119344083,
    "longitude": 53.925607845,
    "engineer_name_ar": "تقي الله",
    "engineer_name_en": "Taqi ullah",
    "engineer_email": "Taqi.ullah@moe.gov.ae",
    "engineer_phone": "526136706",
    "google_maps_url": "https://maps.app.goo.gl/xR734thy1GQguJuh8"
  },
  {
    "school_id": "285AD",
    "school_name_ar": "مدرسة الصديق",
    "school_name_en": "Al Siddique School",
    "latitude": 23.121524314,
    "longitude": 53.922281895,
    "engineer_name_ar": "تقي الله",
    "engineer_name_en": "Taqi ullah",
    "engineer_email": "Taqi.ullah@moe.gov.ae",
    "engineer_phone": "526136706",
    "google_maps_url": "https://maps.app.goo.gl/PoDzygigcYCp5jfJA"
  },
  {
    "school_id": "2005AD",
    "school_name_ar": "مدرسة الظفرة",
    "school_name_en": "Al Dhafra School",
    "latitude": 23.665055866,
    "longitude": 53.703467227,
    "engineer_name_ar": "تقي الله",
    "engineer_name_en": "Taqi ullah",
    "engineer_email": "Taqi.ullah@moe.gov.ae",
    "engineer_phone": "526136706",
    "google_maps_url": "https://maps.app.goo.gl/VDeiRHnT5CQa1k4g7"
  },
  {
    "school_id": "2017AD",
    "school_name_ar": "مدرسة دلما",
    "school_name_en": "Dalma School",
    "latitude": 24.494823995,
    "longitude": 52.326366342,
    "engineer_name_ar": "تقي الله",
    "engineer_name_en": "Taqi ullah",
    "engineer_email": "Taqi.ullah@moe.gov.ae",
    "engineer_phone": "526136706",
    "google_maps_url": "https://maps.app.goo.gl/bVt9UhRdEyqQqa5Q8"
  }
]